[{"name": "TIMEZONE(PLAZA SINGAPURA)", "address": "#07-02/03  68 ORCHARD ROAD,SINGAPORE 238839", "location": [1.3006193000000066, 103.8449113635071]}, {"name": "TIMEZONE(3GATEWAY DRIVE)", "address": "#B1-03/04/05,3GATEWAYDRIVE,608532 SINGAPORE", "location": [1.334467, 103.742788]}, {"name": "VIRTUALAND BUGIS+", "address": "201 Victoria Street , #05-04/05/06 Bugis+, Singapore 188067", "location": [27.943969, -82.287194]}, {"name": "PACO FUNWORLD(KALLANG WAVE MALL)", "address": "1 Stadium Place 01-59102 Singapore 397628", "location": [1.3025249, 103.8736219]}, {"name": "VC FLAGSHIP PLUS", "address": "1Harbourfront Walk,#02-205 VivoCity,Singapore 098585", "location": [1.2640606, 103.8223506]}, {"name": "VIRTUALAND(NEX)", "address": "23, SERANGOON CENTRAL #04-65 NEX SINGAPORE", "location": [1.350771369527377, 103.87222576571082]}, {"name": "VIRTUALAND CENTURY SQUARE", "address": "2TAMPINES CENTRAL 5 #05-02/03/04CENTURY SQUARE", "location": [1.352739, 103.9438363]}, {"name": "HEART BEAT BEDOK MALL", "address": "11 Bedok North Street1", "location": [1.3269753, 103.9321493]}, {"name": "ANG MO KIO HUB", "address": "53 ANG MO KIO AUE 3 HOH 06 569933", "location": [1.3691149, 103.8454342]}, {"name": "TIMEZONE(CAUSEWAY POINT)", "address": "1 WOODLANDS SQUARE #07-02CAUSEWAY POINT SINGAPORE", "location": [1.4361030739343446, 103.7859563747993]}, {"name": "TIMEZONE(NORTH POINT)", "address": "930 YISHUN AVE.2 #03-30,NORTHPOINT, SINGAPORE", "location": [1.4293518119672943, 103.83577637119868]}, {"name": "LOT1 SHOPPER'S MALL", "address": "No.21,Choa Chu Kang Ave 4,#5-01/02/03,Singapore 689812", "location": [1.3852086, 103.7449371]}, {"name": "FAT CAT(HILLION)", "address": "Hillion Mall #01-28.17 Petir Rd, Singapore 678278", "location": [1.3784819, 103.7632117]}, {"name": "TIMEZONE(OUR TAMPINES HUB)", "address": "51TAMPINES AVENUE4#B1-13OUR TAMPINES HUB SINGAPORE 529684", "location": [1.3459383, 103.9382917]}, {"name": "ZONE-X(EAST POINT MALL)", "address": "EastPoint Mall 3 Simei Street 6,B1-01102 Singapore 528833l", "location": [1.3427145, 103.9530415]}, {"name": "ZONE-X(PLQ MALL)", "address": "PLQ MALL 10 Paya Lebar RD,05-01,Singapore 409057", "location": [1.3175492, 103.8927839]}, {"name": "COW PLAY COW MOO(SUNTEC CITY)", "address": "Sun Tec City 3Temasek Boulevard, 02-408/409,Singapore 038983", "location": [1.29503, 103.8583026]}, {"name": "FAT CAT(SUMMER SET)", "address": "313@Summeset 313 Orchard RD,05-05,Singapore,238895", "location": [1.3009665, 103.8384727]}, {"name": "PACO FUNWORLD(BUGIS PLUS)", "address": "Bugis Plus201 VictoriaStreet,#05-07Singapore", "location": [1.2996018, 103.8542325]}, {"name": "TIMEZONE PARKWAY PARADE", "address": "80,MARINE PARADE RD,#B1-17 PARKWAY PARADE SINGAPORE 449269", "location": [43.6261384, -79.4773393]}, {"name": "TIMEZONE(WESTGATE)", "address": "3 Gateway Drive,#B1-45/46 Westgate Singapore 608532", "location": [41.5861225, -81.5368761]}]